<?xml version="1.0" encoding="UTF-8"?>
<kml xmlns="http://earth.google.com/kml/2.2">
  <Document>
    <name>nameless</name>
    <Placemark>
      <name>Asturian</name>
      <Point>
        <coordinates>-6.0,43.25,0</coordinates>
      </Point>
    </Placemark>
    <Placemark>
      <name>Central Catalan</name>
      <Point>
        <coordinates>2.0,41.75,0</coordinates>
      </Point>
    </Placemark>
    <Placemark>
      <name>North-Western Catalan</name>
      <Point>
        <coordinates>2.18,41.38,0</coordinates>
      </Point>
    </Placemark>
    <Placemark>
      <name>Minorcan Catalan</name>
      <Point>
        <coordinates>2.65,39.57,0</coordinates>
      </Point>
    </Placemark>
    <Placemark>
      <name>Castello de la Plana Catalan</name>
      <Point>
        <coordinates>-0.03,39.98,0</coordinates>
      </Point>
    </Placemark>
    <Placemark>
      <name>Valencia Catalan</name>
      <Point>
        <coordinates>-0.37,39.46,0</coordinates>
      </Point>
    </Placemark>
    <Placemark>
      <name>Manises Catalan</name>
      <Point>
        <coordinates>-0.46,39.49,0</coordinates>
      </Point>
    </Placemark>
    <Placemark>
      <name>Dalmatian</name>
      <Point>
        <coordinates>18.02,42.71,0</coordinates>
      </Point>
    </Placemark>
    <Placemark>
      <name>Ravennate Romagnol</name>
      <Point>
        <coordinates>11.72,44.23,0</coordinates>
      </Point>
    </Placemark>
    <Placemark>
      <name>Ferrarese Emiliano</name>
      <Point>
        <coordinates>11.61,44.83,0</coordinates>
      </Point>
    </Placemark>
    <Placemark>
      <name>Carpigiano Emiliano</name>
      <Point>
        <coordinates>10.88,44.78,0</coordinates>
      </Point>
    </Placemark>
    <Placemark>
      <name>Reggiano Emiliano</name>
      <Point>
        <coordinates>10.41,44.4,0</coordinates>
      </Point>
    </Placemark>
    <Placemark>
      <name>Standard French</name>
      <Point>
        <coordinates>2.0,48.0,0</coordinates>
      </Point>
    </Placemark>
    <Placemark>
      <name>Friulian</name>
      <Point>
        <coordinates>12.9,46.17,0</coordinates>
      </Point>
    </Placemark>
    <Placemark>
      <name>Galician</name>
      <Point>
        <coordinates>-8.0,43.0,0</coordinates>
      </Point>
    </Placemark>
    <Placemark>
      <name>Standard Italian</name>
      <Point>
        <coordinates>12.0,43.0,0</coordinates>
      </Point>
    </Placemark>
    <Placemark>
      <name>Foligno Italian</name>
      <Point>
        <coordinates>12.76,42.98,0</coordinates>
      </Point>
    </Placemark>
    <Placemark>
      <name>Grosseto Italian</name>
      <Point>
        <coordinates>11.11,42.75,0</coordinates>
      </Point>
    </Placemark>
    <Placemark>
      <name>Rapallo Ligurian</name>
      <Point>
        <coordinates>9.22,44.35,0</coordinates>
      </Point>
    </Placemark>
    <Placemark>
      <name>Genoese Ligurian</name>
      <Point>
        <coordinates>9.05,44.44,0</coordinates>
      </Point>
    </Placemark>
    <Placemark>
      <name>Stella Ligurian</name>
      <Point>
        <coordinates>8.5,44.4,0</coordinates>
      </Point>
    </Placemark>
    <Placemark>
      <name>Gardenese Ladin</name>
      <Point>
        <coordinates>10.68,45.66,0</coordinates>
      </Point>
    </Placemark>
    <Placemark>
      <name>Fassano Ladin</name>
      <Point>
        <coordinates>11.63,46.41,0</coordinates>
      </Point>
    </Placemark>
    <Placemark>
      <name>Bergamo Lombard</name>
      <Point>
        <coordinates>9.66,45.69,0</coordinates>
      </Point>
    </Placemark>
    <Placemark>
      <name>Plesio Lombard</name>
      <Point>
        <coordinates>9.23,46.04,0</coordinates>
      </Point>
    </Placemark>
    <Placemark>
      <name>Neapolitan</name>
      <Point>
        <coordinates>14.24,40.83,0</coordinates>
      </Point>
    </Placemark>
    <Placemark>
      <name>Picard</name>
      <Point>
        <coordinates>3.29,50.65,0</coordinates>
      </Point>
    </Placemark>
    <Placemark>
      <name>Lanzo Torinese Piemontese</name>
      <Point>
        <coordinates>7.6,45.73,0</coordinates>
      </Point>
    </Placemark>
    <Placemark>
      <name>Barbania Piemontese</name>
      <Point>
        <coordinates>8.46,44.37,0</coordinates>
      </Point>
    </Placemark>
    <Placemark>
      <name>Carmagnola Piemontese</name>
      <Point>
        <coordinates>7.7,44.88,0</coordinates>
      </Point>
    </Placemark>
    <Placemark>
      <name>Turinese Piemontese</name>
      <Point>
        <coordinates>7.68,45.06,0</coordinates>
      </Point>
    </Placemark>
    <Placemark>
      <name>Vercellese Piemontese</name>
      <Point>
        <coordinates>7.64,45.3,0</coordinates>
      </Point>
    </Placemark>
    <Placemark>
      <name>Standard Portuguese</name>
      <Point>
        <coordinates>-8.0,39.0,0</coordinates>
      </Point>
    </Placemark>
    <Placemark>
      <name>Provencal Occitan</name>
      <Point>
        <coordinates>0.84,42.72,0</coordinates>
      </Point>
    </Placemark>
    <Placemark>
      <name>Savoyard Franco-Provencal</name>
      <Point>
        <coordinates>0.84,42.72,0</coordinates>
      </Point>
    </Placemark>
    <Placemark>
      <name>Rumantsch Grischun</name>
      <Point>
        <coordinates>9.93,46.55,0</coordinates>
      </Point>
    </Placemark>
    <Placemark>
      <name>Sursilvan Romansh</name>
      <Point>
        <coordinates>8.83,46.67,0</coordinates>
      </Point>
    </Placemark>
    <Placemark>
      <name>Surmiran Romansh</name>
      <Point>
        <coordinates>9.93,46.55,0</coordinates>
      </Point>
    </Placemark>
    <Placemark>
      <name>Vallader Romansh</name>
      <Point>
        <coordinates>9.93,46.55,0</coordinates>
      </Point>
    </Placemark>
    <Placemark>
      <name>Romanian</name>
      <Point>
        <coordinates>25.0,46.0,0</coordinates>
      </Point>
    </Placemark>
    <Placemark>
      <name>Istro Romanian</name>
      <Point>
        <coordinates>13.91,45.18,0</coordinates>
      </Point>
    </Placemark>
    <Placemark>
      <name>Aromanian</name>
      <Point>
        <coordinates>20.75,40.0,0</coordinates>
      </Point>
    </Placemark>
    <Placemark>
      <name>Megleno Romanian</name>
      <Point>
        <coordinates>22.38,41.12,0</coordinates>
      </Point>
    </Placemark>
    <Placemark>
      <name>Palermitan Sicilian</name>
      <Point>
        <coordinates>13.6,37.88,0</coordinates>
      </Point>
    </Placemark>
    <Placemark>
      <name>Messinese Sicilian</name>
      <Point>
        <coordinates>15.55,38.19,0</coordinates>
      </Point>
    </Placemark>
    <Placemark>
      <name>Catanian Sicilian</name>
      <Point>
        <coordinates>15.08,37.50,0</coordinates>
      </Point>
    </Placemark>
    <Placemark>
      <name>South-Eastern Sicilian</name>
      <Point>
        <coordinates>15.22,37.05,0</coordinates>
      </Point>
    </Placemark>
    <Placemark>
      <name>Castilian Spanish</name>
      <Point>
        <coordinates>-4.00,40.00,0</coordinates>
      </Point>
    </Placemark>
    <Placemark>
      <name>Logudorese</name>
      <Point>
        <coordinates>9.1,40.5,0</coordinates>
      </Point>
    </Placemark>
    <Placemark>
      <name>Campidanese</name>
      <Point>
        <coordinates>9.04,39.06,0</coordinates>
      </Point>
    </Placemark>
    <Placemark>
      <name>Venice Venetian</name>
      <Point>
        <coordinates>12.33,45.43,0</coordinates>
      </Point>
    </Placemark>
    <Placemark>
      <name>Primiero Venetian</name>
      <Point>
        <coordinates>11.82,46.16,0</coordinates>
      </Point>
    </Placemark>
    <Placemark>
      <name>Bellunese Venetian</name>
      <Point>
        <coordinates>12.21,46.13,0</coordinates>
      </Point>
    </Placemark>
    <Placemark>
      <name>Walloon</name>
      <Point>
        <coordinates>5.15,50.22,0</coordinates>
      </Point>
    </Placemark>
  </Document>
</kml>
